[
  {
    "id": 0,
    "name": "eiusmod commodo",
    "image": "http://placehold.it/100x100",
    "latitude": -74.501838,
    "longitude": -54.677804,
    "phone": "+1 (854) 511-3801",
    "website": "http://culpa.com"
  },
  {
    "id": 1,
    "name": "ea aute",
    "image": "http://placehold.it/100x100",
    "latitude": 54.441204,
    "longitude": -65.033522,
    "phone": "+1 (968) 456-2256",
    "website": "http://proident.com"
  },
  {
    "id": 2,
    "name": "aute consequat",
    "image": "http://placehold.it/100x100",
    "latitude": -21.405664,
    "longitude": -44.976137,
    "phone": "+1 (979) 428-2164",
    "website": "http://adipisicing.com"
  },
  {
    "id": 3,
    "name": "duis est",
    "image": "http://placehold.it/100x100",
    "latitude": 66.755697,
    "longitude": 38.139214,
    "phone": "+1 (915) 597-2660",
    "website": "http://amet.com"
  },
  {
    "id": 4,
    "name": "exercitation ut",
    "image": "http://placehold.it/100x100",
    "latitude": -56.187641,
    "longitude": 61.505433,
    "phone": "+1 (855) 418-2680",
    "website": "http://id.com"
  },
  {
    "id": 5,
    "name": "tempor sit",
    "image": "http://placehold.it/100x100",
    "latitude": 84.537757,
    "longitude": 15.347023,
    "phone": "+1 (976) 565-2894",
    "website": "http://incididunt.com"
  },
  {
    "id": 6,
    "name": "excepteur commodo",
    "image": "http://placehold.it/100x100",
    "latitude": 58.768963,
    "longitude": 78.230254,
    "phone": "+1 (947) 543-3983",
    "website": "http://ea.com"
  },
  {
    "id": 7,
    "name": "pariatur duis",
    "image": "http://placehold.it/100x100",
    "latitude": -33.001433,
    "longitude": -152.209953,
    "phone": "+1 (850) 436-3548",
    "website": "http://aute.com"
  },
  {
    "id": 8,
    "name": "esse ea",
    "image": "http://placehold.it/100x100",
    "latitude": 1.530863,
    "longitude": 65.457724,
    "phone": "+1 (977) 520-2223",
    "website": "http://consectetur.com"
  },
  {
    "id": 9,
    "name": "aliqua eu",
    "image": "http://placehold.it/100x100",
    "latitude": 36.916686,
    "longitude": -69.331583,
    "phone": "+1 (905) 540-2386",
    "website": "http://consectetur.com"
  },
  {
    "id": 10,
    "name": "nulla proident",
    "image": "http://placehold.it/100x100",
    "latitude": 69.936166,
    "longitude": 111.674864,
    "phone": "+1 (849) 539-3914",
    "website": "http://esse.com"
  },
  {
    "id": 11,
    "name": "sit qui",
    "image": "http://placehold.it/100x100",
    "latitude": 81.584432,
    "longitude": 168.807632,
    "phone": "+1 (992) 476-2823",
    "website": "http://irure.com"
  },
  {
    "id": 12,
    "name": "minim consequat",
    "image": "http://placehold.it/100x100",
    "latitude": 3.525023,
    "longitude": -2.807657,
    "phone": "+1 (834) 444-3234",
    "website": "http://nostrud.com"
  },
  {
    "id": 13,
    "name": "Lorem cillum",
    "image": "http://placehold.it/100x100",
    "latitude": -7.07343,
    "longitude": -43.680437,
    "phone": "+1 (804) 581-3076",
    "website": "http://in.com"
  },
  {
    "id": 14,
    "name": "fugiat consequat",
    "image": "http://placehold.it/100x100",
    "latitude": -39.585404,
    "longitude": 153.841862,
    "phone": "+1 (986) 492-2275",
    "website": "http://sunt.com"
  },
  {
    "id": 15,
    "name": "dolor non",
    "image": "http://placehold.it/100x100",
    "latitude": -19.575594,
    "longitude": 117.228461,
    "phone": "+1 (988) 444-2416",
    "website": "http://nisi.com"
  },
  {
    "id": 16,
    "name": "ea veniam",
    "image": "http://placehold.it/100x100",
    "latitude": -72.574665,
    "longitude": -49.743229,
    "phone": "+1 (858) 472-3635",
    "website": "http://occaecat.com"
  },
  {
    "id": 17,
    "name": "do tempor",
    "image": "http://placehold.it/100x100",
    "latitude": 60.961605,
    "longitude": 71.827334,
    "phone": "+1 (828) 555-2323",
    "website": "http://ea.com"
  },
  {
    "id": 18,
    "name": "do ut",
    "image": "http://placehold.it/100x100",
    "latitude": 39.339574,
    "longitude": -172.537743,
    "phone": "+1 (992) 437-2413",
    "website": "http://nostrud.com"
  },
  {
    "id": 19,
    "name": "officia voluptate",
    "image": "http://placehold.it/100x100",
    "latitude": 53.270054,
    "longitude": -7.867249,
    "phone": "+1 (864) 513-2207",
    "website": "http://ipsum.com"
  },
  {
    "id": 20,
    "name": "eiusmod culpa",
    "image": "http://placehold.it/100x100",
    "latitude": -49.381966,
    "longitude": -6.862913,
    "phone": "+1 (892) 402-2984",
    "website": "http://ipsum.com"
  },
  {
    "id": 21,
    "name": "occaecat sit",
    "image": "http://placehold.it/100x100",
    "latitude": -23.259275,
    "longitude": 113.86433,
    "phone": "+1 (813) 411-2032",
    "website": "http://labore.com"
  },
  {
    "id": 22,
    "name": "cillum eu",
    "image": "http://placehold.it/100x100",
    "latitude": -56.02742,
    "longitude": -14.670034,
    "phone": "+1 (877) 504-2759",
    "website": "http://in.com"
  },
  {
    "id": 23,
    "name": "amet ad",
    "image": "http://placehold.it/100x100",
    "latitude": -7.224638,
    "longitude": -143.447872,
    "phone": "+1 (951) 431-3646",
    "website": "http://sit.com"
  },
  {
    "id": 24,
    "name": "irure do",
    "image": "http://placehold.it/100x100",
    "latitude": 52.566424,
    "longitude": 128.693169,
    "phone": "+1 (872) 513-2212",
    "website": "http://cillum.com"
  },
  {
    "id": 25,
    "name": "culpa amet",
    "image": "http://placehold.it/100x100",
    "latitude": -5.892974,
    "longitude": 156.831103,
    "phone": "+1 (987) 433-2123",
    "website": "http://est.com"
  }
]
