[
  {
    "id": 0,
    "name": "ea officia",
    "image": "http://placehold.it/100x100",
    "latitude": -12.588252,
    "longitude": 26.53876,
    "phone": "+1 (941) 483-2570",
    "website": "http://minim.com"
  },
  {
    "id": 1,
    "name": "sunt ex",
    "image": "http://placehold.it/100x100",
    "latitude": -24.423181,
    "longitude": -42.116838,
    "phone": "+1 (871) 464-3541",
    "website": "http://minim.com"
  },
  {
    "id": 2,
    "name": "proident qui",
    "image": "http://placehold.it/100x100",
    "latitude": 85.161462,
    "longitude": -65.065859,
    "phone": "+1 (999) 464-3521",
    "website": "http://incididunt.com"
  },
  {
    "id": 3,
    "name": "eu excepteur",
    "image": "http://placehold.it/100x100",
    "latitude": 75.172705,
    "longitude": 63.640394,
    "phone": "+1 (908) 400-3536",
    "website": "http://esse.com"
  },
  {
    "id": 4,
    "name": "minim sit",
    "image": "http://placehold.it/100x100",
    "latitude": 60.979628,
    "longitude": -31.732838,
    "phone": "+1 (990) 517-2085",
    "website": "http://sunt.com"
  },
  {
    "id": 5,
    "name": "magna ullamco",
    "image": "http://placehold.it/100x100",
    "latitude": -63.018527,
    "longitude": 158.022465,
    "phone": "+1 (964) 431-3421",
    "website": "http://qui.com"
  },
  {
    "id": 6,
    "name": "consequat esse",
    "image": "http://placehold.it/100x100",
    "latitude": 84.776704,
    "longitude": 133.70386,
    "phone": "+1 (838) 518-2195",
    "website": "http://veniam.com"
  },
  {
    "id": 7,
    "name": "enim fugiat",
    "image": "http://placehold.it/100x100",
    "latitude": 48.07736,
    "longitude": -24.508509,
    "phone": "+1 (855) 513-3521",
    "website": "http://in.com"
  },
  {
    "id": 8,
    "name": "proident irure",
    "image": "http://placehold.it/100x100",
    "latitude": 84.2847,
    "longitude": 52.35113,
    "phone": "+1 (985) 557-3649",
    "website": "http://eiusmod.com"
  },
  {
    "id": 9,
    "name": "ea enim",
    "image": "http://placehold.it/100x100",
    "latitude": 24.002303,
    "longitude": 84.842962,
    "phone": "+1 (817) 556-2862",
    "website": "http://duis.com"
  },
  {
    "id": 10,
    "name": "ex deserunt",
    "image": "http://placehold.it/100x100",
    "latitude": -86.546362,
    "longitude": 45.875722,
    "phone": "+1 (927) 456-3515",
    "website": "http://laborum.com"
  },
  {
    "id": 11,
    "name": "nulla adipisicing",
    "image": "http://placehold.it/100x100",
    "latitude": -20.195938,
    "longitude": -16.893962,
    "phone": "+1 (905) 545-3400",
    "website": "http://officia.com"
  },
  {
    "id": 12,
    "name": "in duis",
    "image": "http://placehold.it/100x100",
    "latitude": 32.404253,
    "longitude": 175.239797,
    "phone": "+1 (991) 509-2987",
    "website": "http://aute.com"
  },
  {
    "id": 13,
    "name": "consequat ut",
    "image": "http://placehold.it/100x100",
    "latitude": 64.724663,
    "longitude": 112.004947,
    "phone": "+1 (891) 502-3452",
    "website": "http://voluptate.com"
  },
  {
    "id": 14,
    "name": "dolore sint",
    "image": "http://placehold.it/100x100",
    "latitude": -62.338536,
    "longitude": 44.855003,
    "phone": "+1 (803) 423-2524",
    "website": "http://culpa.com"
  },
  {
    "id": 15,
    "name": "nostrud commodo",
    "image": "http://placehold.it/100x100",
    "latitude": -40.600645,
    "longitude": -22.826274,
    "phone": "+1 (945) 499-2495",
    "website": "http://sunt.com"
  },
  {
    "id": 16,
    "name": "nostrud laboris",
    "image": "http://placehold.it/100x100",
    "latitude": 18.300384,
    "longitude": -149.977931,
    "phone": "+1 (942) 523-3309",
    "website": "http://cupidatat.com"
  },
  {
    "id": 17,
    "name": "quis nisi",
    "image": "http://placehold.it/100x100",
    "latitude": 45.244676,
    "longitude": 47.914228,
    "phone": "+1 (866) 406-2363",
    "website": "http://adipisicing.com"
  },
  {
    "id": 18,
    "name": "consectetur aliqua",
    "image": "http://placehold.it/100x100",
    "latitude": 51.833713,
    "longitude": 130.127343,
    "phone": "+1 (838) 479-2216",
    "website": "http://commodo.com"
  },
  {
    "id": 19,
    "name": "voluptate id",
    "image": "http://placehold.it/100x100",
    "latitude": -61.879414,
    "longitude": 58.059998,
    "phone": "+1 (801) 436-2416",
    "website": "http://minim.com"
  },
  {
    "id": 20,
    "name": "ullamco sit",
    "image": "http://placehold.it/100x100",
    "latitude": -31.562813,
    "longitude": -139.426218,
    "phone": "+1 (892) 589-2254",
    "website": "http://culpa.com"
  },
  {
    "id": 21,
    "name": "laboris eiusmod",
    "image": "http://placehold.it/100x100",
    "latitude": -24.471701,
    "longitude": -3.993813,
    "phone": "+1 (880) 582-2313",
    "website": "http://esse.com"
  },
  {
    "id": 22,
    "name": "ad culpa",
    "image": "http://placehold.it/100x100",
    "latitude": 47.414216,
    "longitude": -58.432814,
    "phone": "+1 (913) 456-3728",
    "website": "http://do.com"
  },
  {
    "id": 23,
    "name": "aute amet",
    "image": "http://placehold.it/100x100",
    "latitude": -9.042982,
    "longitude": -5.576168,
    "phone": "+1 (994) 527-2654",
    "website": "http://esse.com"
  },
  {
    "id": 24,
    "name": "enim tempor",
    "image": "http://placehold.it/100x100",
    "latitude": -58.500532,
    "longitude": 83.691595,
    "phone": "+1 (866) 584-3048",
    "website": "http://eiusmod.com"
  },
  {
    "id": 25,
    "name": "nisi nisi",
    "image": "http://placehold.it/100x100",
    "latitude": 81.394679,
    "longitude": 2.683099,
    "phone": "+1 (897) 591-3975",
    "website": "http://minim.com"
  },
  {
    "id": 26,
    "name": "incididunt laboris",
    "image": "http://placehold.it/100x100",
    "latitude": 12.040596,
    "longitude": -35.916434,
    "phone": "+1 (824) 485-2047",
    "website": "http://sunt.com"
  }
]
