[
  {
    "id": 0,
    "name": "enim elit",
    "image": "http://placehold.it/100x100",
    "latitude": -84.057285,
    "longitude": -122.131772,
    "phone": "+1 (838) 469-3816",
    "website": "http://consectetur.com"
  },
  {
    "id": 1,
    "name": "sunt ea",
    "image": "http://placehold.it/100x100",
    "latitude": 30.968189,
    "longitude": -65.546755,
    "phone": "+1 (871) 423-3632",
    "website": "http://sint.com"
  },
  {
    "id": 2,
    "name": "pariatur Lorem",
    "image": "http://placehold.it/100x100",
    "latitude": 84.090625,
    "longitude": 101.478801,
    "phone": "+1 (943) 518-3845",
    "website": "http://laborum.com"
  },
  {
    "id": 3,
    "name": "enim non",
    "image": "http://placehold.it/100x100",
    "latitude": 45.024383,
    "longitude": -162.521997,
    "phone": "+1 (962) 564-3333",
    "website": "http://aliqua.com"
  },
  {
    "id": 4,
    "name": "ad sit",
    "image": "http://placehold.it/100x100",
    "latitude": 8.187659,
    "longitude": -69.019445,
    "phone": "+1 (933) 490-3240",
    "website": "http://laborum.com"
  },
  {
    "id": 5,
    "name": "proident in",
    "image": "http://placehold.it/100x100",
    "latitude": -25.316486,
    "longitude": 45.143584,
    "phone": "+1 (923) 464-2683",
    "website": "http://nostrud.com"
  },
  {
    "id": 6,
    "name": "do culpa",
    "image": "http://placehold.it/100x100",
    "latitude": 82.000259,
    "longitude": 35.667072,
    "phone": "+1 (906) 435-3620",
    "website": "http://mollit.com"
  },
  {
    "id": 7,
    "name": "do nostrud",
    "image": "http://placehold.it/100x100",
    "latitude": 43.93607,
    "longitude": -125.17426,
    "phone": "+1 (962) 536-3582",
    "website": "http://pariatur.com"
  },
  {
    "id": 8,
    "name": "pariatur veniam",
    "image": "http://placehold.it/100x100",
    "latitude": 85.824856,
    "longitude": 10.287512,
    "phone": "+1 (887) 539-2748",
    "website": "http://do.com"
  },
  {
    "id": 9,
    "name": "ad magna",
    "image": "http://placehold.it/100x100",
    "latitude": 26.305266,
    "longitude": 65.308814,
    "phone": "+1 (985) 432-3898",
    "website": "http://consectetur.com"
  },
  {
    "id": 10,
    "name": "officia amet",
    "image": "http://placehold.it/100x100",
    "latitude": -84.307447,
    "longitude": -47.016125,
    "phone": "+1 (832) 408-2356",
    "website": "http://nisi.com"
  },
  {
    "id": 11,
    "name": "eu tempor",
    "image": "http://placehold.it/100x100",
    "latitude": 84.444448,
    "longitude": 40.865602,
    "phone": "+1 (950) 445-3975",
    "website": "http://laboris.com"
  },
  {
    "id": 12,
    "name": "est elit",
    "image": "http://placehold.it/100x100",
    "latitude": -32.889792,
    "longitude": -67.246744,
    "phone": "+1 (801) 449-2278",
    "website": "http://nisi.com"
  }
]
