[
  {
    "id": 0,
    "name": "anim veniam",
    "image": "http://placehold.it/100x100",
    "latitude": -27.764094,
    "longitude": -91.974414,
    "phone": "+1 (923) 544-2175",
    "website": "http://nisi.com"
  },
  {
    "id": 1,
    "name": "ea in",
    "image": "http://placehold.it/100x100",
    "latitude": 15.95156,
    "longitude": -118.568098,
    "phone": "+1 (949) 574-3299",
    "website": "http://magna.com"
  },
  {
    "id": 2,
    "name": "mollit occaecat",
    "image": "http://placehold.it/100x100",
    "latitude": 59.590654,
    "longitude": 142.175288,
    "phone": "+1 (967) 576-3432",
    "website": "http://minim.com"
  },
  {
    "id": 3,
    "name": "ad exercitation",
    "image": "http://placehold.it/100x100",
    "latitude": -39.37935,
    "longitude": -120.92569,
    "phone": "+1 (911) 435-2170",
    "website": "http://cillum.com"
  },
  {
    "id": 4,
    "name": "pariatur voluptate",
    "image": "http://placehold.it/100x100",
    "latitude": 80.518355,
    "longitude": -121.495581,
    "phone": "+1 (974) 433-2661",
    "website": "http://pariatur.com"
  },
  {
    "id": 5,
    "name": "id labore",
    "image": "http://placehold.it/100x100",
    "latitude": -56.001609,
    "longitude": 116.151374,
    "phone": "+1 (869) 402-2309",
    "website": "http://nostrud.com"
  },
  {
    "id": 6,
    "name": "cupidatat mollit",
    "image": "http://placehold.it/100x100",
    "latitude": 14.304309,
    "longitude": -97.348664,
    "phone": "+1 (825) 426-2895",
    "website": "http://labore.com"
  },
  {
    "id": 7,
    "name": "ea velit",
    "image": "http://placehold.it/100x100",
    "latitude": -64.600457,
    "longitude": -41.740052,
    "phone": "+1 (941) 404-2601",
    "website": "http://mollit.com"
  },
  {
    "id": 8,
    "name": "dolor sunt",
    "image": "http://placehold.it/100x100",
    "latitude": 37.718273,
    "longitude": 85.523328,
    "phone": "+1 (918) 493-3204",
    "website": "http://cupidatat.com"
  },
  {
    "id": 9,
    "name": "velit reprehenderit",
    "image": "http://placehold.it/100x100",
    "latitude": -33.30301,
    "longitude": -41.43572,
    "phone": "+1 (880) 569-2099",
    "website": "http://aute.com"
  },
  {
    "id": 10,
    "name": "labore sint",
    "image": "http://placehold.it/100x100",
    "latitude": -3.509198,
    "longitude": -151.978751,
    "phone": "+1 (873) 475-2663",
    "website": "http://velit.com"
  },
  {
    "id": 11,
    "name": "eiusmod aliquip",
    "image": "http://placehold.it/100x100",
    "latitude": 18.793791,
    "longitude": 171.596545,
    "phone": "+1 (932) 584-3245",
    "website": "http://enim.com"
  },
  {
    "id": 12,
    "name": "laborum nulla",
    "image": "http://placehold.it/100x100",
    "latitude": -0.114861,
    "longitude": 14.279017,
    "phone": "+1 (839) 524-2164",
    "website": "http://voluptate.com"
  },
  {
    "id": 13,
    "name": "in aliqua",
    "image": "http://placehold.it/100x100",
    "latitude": 86.803139,
    "longitude": -7.42275,
    "phone": "+1 (811) 574-2614",
    "website": "http://aliquip.com"
  },
  {
    "id": 14,
    "name": "enim id",
    "image": "http://placehold.it/100x100",
    "latitude": -56.914847,
    "longitude": -130.796499,
    "phone": "+1 (805) 506-2337",
    "website": "http://minim.com"
  },
  {
    "id": 15,
    "name": "ut aliqua",
    "image": "http://placehold.it/100x100",
    "latitude": -69.80625,
    "longitude": -102.068799,
    "phone": "+1 (985) 478-3615",
    "website": "http://cupidatat.com"
  },
  {
    "id": 16,
    "name": "cupidatat est",
    "image": "http://placehold.it/100x100",
    "latitude": -35.87287,
    "longitude": 83.890274,
    "phone": "+1 (845) 472-2749",
    "website": "http://ad.com"
  },
  {
    "id": 17,
    "name": "tempor proident",
    "image": "http://placehold.it/100x100",
    "latitude": -46.937227,
    "longitude": 6.390097,
    "phone": "+1 (836) 450-2319",
    "website": "http://laboris.com"
  },
  {
    "id": 18,
    "name": "in exercitation",
    "image": "http://placehold.it/100x100",
    "latitude": 20.982801,
    "longitude": -87.306005,
    "phone": "+1 (882) 484-2793",
    "website": "http://anim.com"
  },
  {
    "id": 19,
    "name": "labore id",
    "image": "http://placehold.it/100x100",
    "latitude": 44.801883,
    "longitude": 160.764177,
    "phone": "+1 (884) 461-3669",
    "website": "http://laboris.com"
  },
  {
    "id": 20,
    "name": "cillum aliqua",
    "image": "http://placehold.it/100x100",
    "latitude": -6.640755,
    "longitude": 162.804486,
    "phone": "+1 (969) 539-3558",
    "website": "http://velit.com"
  },
  {
    "id": 21,
    "name": "excepteur dolore",
    "image": "http://placehold.it/100x100",
    "latitude": 65.862542,
    "longitude": -97.803142,
    "phone": "+1 (859) 581-3583",
    "website": "http://duis.com"
  },
  {
    "id": 22,
    "name": "occaecat duis",
    "image": "http://placehold.it/100x100",
    "latitude": -81.120987,
    "longitude": -168.054018,
    "phone": "+1 (837) 417-3919",
    "website": "http://culpa.com"
  }
]
