[
  {
    "id": 0,
    "name": "tempor sint",
    "image": "http://placehold.it/100x100",
    "latitude": 35.137297,
    "longitude": 13.561449,
    "phone": "+1 (935) 402-2856",
    "website": "http://nisi.com"
  },
  {
    "id": 1,
    "name": "elit pariatur",
    "image": "http://placehold.it/100x100",
    "latitude": -71.438554,
    "longitude": -73.591692,
    "phone": "+1 (876) 477-2588",
    "website": "http://pariatur.com"
  },
  {
    "id": 2,
    "name": "duis sint",
    "image": "http://placehold.it/100x100",
    "latitude": 5.796641,
    "longitude": 161.81382,
    "phone": "+1 (881) 493-2489",
    "website": "http://aliqua.com"
  },
  {
    "id": 3,
    "name": "reprehenderit enim",
    "image": "http://placehold.it/100x100",
    "latitude": 16.599496,
    "longitude": -141.378386,
    "phone": "+1 (968) 428-3272",
    "website": "http://veniam.com"
  },
  {
    "id": 4,
    "name": "voluptate do",
    "image": "http://placehold.it/100x100",
    "latitude": 56.157935,
    "longitude": 7.785526,
    "phone": "+1 (953) 461-2310",
    "website": "http://nisi.com"
  },
  {
    "id": 5,
    "name": "quis duis",
    "image": "http://placehold.it/100x100",
    "latitude": 1.837826,
    "longitude": 123.527287,
    "phone": "+1 (963) 509-2253",
    "website": "http://qui.com"
  },
  {
    "id": 6,
    "name": "est pariatur",
    "image": "http://placehold.it/100x100",
    "latitude": -66.851236,
    "longitude": 85.543425,
    "phone": "+1 (935) 562-3318",
    "website": "http://non.com"
  },
  {
    "id": 7,
    "name": "laborum sit",
    "image": "http://placehold.it/100x100",
    "latitude": -52.781049,
    "longitude": -35.89482,
    "phone": "+1 (914) 585-3761",
    "website": "http://mollit.com"
  },
  {
    "id": 8,
    "name": "ullamco qui",
    "image": "http://placehold.it/100x100",
    "latitude": -67.193881,
    "longitude": 66.536051,
    "phone": "+1 (900) 553-3787",
    "website": "http://ex.com"
  },
  {
    "id": 9,
    "name": "ipsum ad",
    "image": "http://placehold.it/100x100",
    "latitude": 57.366287,
    "longitude": -70.571389,
    "phone": "+1 (889) 503-3374",
    "website": "http://consectetur.com"
  },
  {
    "id": 10,
    "name": "irure veniam",
    "image": "http://placehold.it/100x100",
    "latitude": 2.617641,
    "longitude": -4.548213,
    "phone": "+1 (871) 587-2417",
    "website": "http://exercitation.com"
  },
  {
    "id": 11,
    "name": "aliqua excepteur",
    "image": "http://placehold.it/100x100",
    "latitude": -64.687444,
    "longitude": -145.781286,
    "phone": "+1 (971) 498-3279",
    "website": "http://enim.com"
  },
  {
    "id": 12,
    "name": "ut Lorem",
    "image": "http://placehold.it/100x100",
    "latitude": 53.171932,
    "longitude": -119.126302,
    "phone": "+1 (947) 488-3866",
    "website": "http://velit.com"
  },
  {
    "id": 13,
    "name": "aliquip voluptate",
    "image": "http://placehold.it/100x100",
    "latitude": -33.913731,
    "longitude": -128.85362,
    "phone": "+1 (900) 458-3968",
    "website": "http://dolore.com"
  },
  {
    "id": 14,
    "name": "do incididunt",
    "image": "http://placehold.it/100x100",
    "latitude": -49.14762,
    "longitude": 22.016629,
    "phone": "+1 (881) 547-3065",
    "website": "http://eu.com"
  },
  {
    "id": 15,
    "name": "elit sint",
    "image": "http://placehold.it/100x100",
    "latitude": 30.921967,
    "longitude": 73.384266,
    "phone": "+1 (983) 423-2098",
    "website": "http://minim.com"
  }
]
