[
  {
    "id": 0,
    "name": "ut adipisicing",
    "image": "http://placehold.it/100x100",
    "latitude": 43.052272,
    "longitude": 24.316528,
    "phone": "+1 (973) 497-2876",
    "website": "http://veniam.com"
  },
  {
    "id": 1,
    "name": "veniam occaecat",
    "image": "http://placehold.it/100x100",
    "latitude": -28.791402,
    "longitude": 24.851288,
    "phone": "+1 (872) 577-3703",
    "website": "http://nulla.com"
  },
  {
    "id": 2,
    "name": "consequat enim",
    "image": "http://placehold.it/100x100",
    "latitude": -30.918132,
    "longitude": -87.95376,
    "phone": "+1 (811) 547-3114",
    "website": "http://aute.com"
  },
  {
    "id": 3,
    "name": "magna sint",
    "image": "http://placehold.it/100x100",
    "latitude": 77.751292,
    "longitude": 85.294651,
    "phone": "+1 (816) 420-3993",
    "website": "http://duis.com"
  },
  {
    "id": 4,
    "name": "sunt anim",
    "image": "http://placehold.it/100x100",
    "latitude": 61.327918,
    "longitude": 140.95902,
    "phone": "+1 (914) 472-2948",
    "website": "http://consequat.com"
  },
  {
    "id": 5,
    "name": "occaecat incididunt",
    "image": "http://placehold.it/100x100",
    "latitude": -47.322591,
    "longitude": -128.775022,
    "phone": "+1 (870) 420-3962",
    "website": "http://deserunt.com"
  },
  {
    "id": 6,
    "name": "amet irure",
    "image": "http://placehold.it/100x100",
    "latitude": -12.771651,
    "longitude": 115.726073,
    "phone": "+1 (887) 465-2389",
    "website": "http://do.com"
  },
  {
    "id": 7,
    "name": "esse aliquip",
    "image": "http://placehold.it/100x100",
    "latitude": -29.418025,
    "longitude": -7.940911,
    "phone": "+1 (875) 442-3642",
    "website": "http://et.com"
  },
  {
    "id": 8,
    "name": "deserunt commodo",
    "image": "http://placehold.it/100x100",
    "latitude": 71.21285,
    "longitude": -115.586502,
    "phone": "+1 (852) 565-3146",
    "website": "http://do.com"
  }
]
