[
  {
    "id": 0,
    "name": "sit ad",
    "image": "http://placehold.it/100x100",
    "latitude": -9.923752,
    "longitude": -129.800538,
    "phone": "+1 (836) 590-2145",
    "website": "http://labore.com"
  },
  {
    "id": 1,
    "name": "nostrud sit",
    "image": "http://placehold.it/100x100",
    "latitude": 75.364843,
    "longitude": -10.817169,
    "phone": "+1 (807) 493-2876",
    "website": "http://ex.com"
  },
  {
    "id": 2,
    "name": "ipsum minim",
    "image": "http://placehold.it/100x100",
    "latitude": 62.98367,
    "longitude": -94.001986,
    "phone": "+1 (872) 570-3572",
    "website": "http://officia.com"
  },
  {
    "id": 3,
    "name": "magna dolor",
    "image": "http://placehold.it/100x100",
    "latitude": 57.461185,
    "longitude": -118.521379,
    "phone": "+1 (962) 461-2385",
    "website": "http://aliqua.com"
  },
  {
    "id": 4,
    "name": "aliquip id",
    "image": "http://placehold.it/100x100",
    "latitude": 68.258238,
    "longitude": 126.332282,
    "phone": "+1 (832) 555-3886",
    "website": "http://incididunt.com"
  },
  {
    "id": 5,
    "name": "ut velit",
    "image": "http://placehold.it/100x100",
    "latitude": 89.497976,
    "longitude": -41.395556,
    "phone": "+1 (961) 484-2120",
    "website": "http://ad.com"
  },
  {
    "id": 6,
    "name": "dolor nisi",
    "image": "http://placehold.it/100x100",
    "latitude": 17.319293,
    "longitude": 89.681485,
    "phone": "+1 (951) 438-3993",
    "website": "http://id.com"
  },
  {
    "id": 7,
    "name": "eu enim",
    "image": "http://placehold.it/100x100",
    "latitude": 42.794177,
    "longitude": -106.499204,
    "phone": "+1 (812) 549-3057",
    "website": "http://eiusmod.com"
  },
  {
    "id": 8,
    "name": "et et",
    "image": "http://placehold.it/100x100",
    "latitude": -46.427403,
    "longitude": 35.448663,
    "phone": "+1 (801) 577-2495",
    "website": "http://eiusmod.com"
  },
  {
    "id": 9,
    "name": "minim amet",
    "image": "http://placehold.it/100x100",
    "latitude": -53.585276,
    "longitude": 87.959091,
    "phone": "+1 (879) 441-3952",
    "website": "http://eiusmod.com"
  },
  {
    "id": 10,
    "name": "in consequat",
    "image": "http://placehold.it/100x100",
    "latitude": 64.934083,
    "longitude": -142.272558,
    "phone": "+1 (994) 464-2108",
    "website": "http://esse.com"
  },
  {
    "id": 11,
    "name": "est id",
    "image": "http://placehold.it/100x100",
    "latitude": 15.983853,
    "longitude": -178.4372,
    "phone": "+1 (924) 481-2314",
    "website": "http://reprehenderit.com"
  },
  {
    "id": 12,
    "name": "laborum consectetur",
    "image": "http://placehold.it/100x100",
    "latitude": 28.870721,
    "longitude": 31.276107,
    "phone": "+1 (872) 555-2792",
    "website": "http://sit.com"
  }
]
