[
  {
    "id": 0,
    "name": "sit occaecat",
    "image": "http://placehold.it/100x100",
    "latitude": 53.276818,
    "longitude": 151.78096,
    "phone": "+1 (862) 420-3961",
    "website": "http://et.com"
  },
  {
    "id": 1,
    "name": "consectetur irure",
    "image": "http://placehold.it/100x100",
    "latitude": -21.816358,
    "longitude": 4.119114,
    "phone": "+1 (988) 424-2123",
    "website": "http://amet.com"
  },
  {
    "id": 2,
    "name": "veniam ea",
    "image": "http://placehold.it/100x100",
    "latitude": -43.890708,
    "longitude": -124.439766,
    "phone": "+1 (958) 547-2572",
    "website": "http://deserunt.com"
  },
  {
    "id": 3,
    "name": "sit deserunt",
    "image": "http://placehold.it/100x100",
    "latitude": 20.506972,
    "longitude": 90.525128,
    "phone": "+1 (831) 586-3540",
    "website": "http://tempor.com"
  },
  {
    "id": 4,
    "name": "cillum minim",
    "image": "http://placehold.it/100x100",
    "latitude": 85.677005,
    "longitude": -133.137183,
    "phone": "+1 (950) 502-3838",
    "website": "http://quis.com"
  },
  {
    "id": 5,
    "name": "laborum labore",
    "image": "http://placehold.it/100x100",
    "latitude": 19.29576,
    "longitude": -140.129795,
    "phone": "+1 (872) 440-3962",
    "website": "http://enim.com"
  },
  {
    "id": 6,
    "name": "cupidatat nostrud",
    "image": "http://placehold.it/100x100",
    "latitude": 53.678283,
    "longitude": 98.358694,
    "phone": "+1 (836) 480-2977",
    "website": "http://elit.com"
  },
  {
    "id": 7,
    "name": "voluptate amet",
    "image": "http://placehold.it/100x100",
    "latitude": 84.435836,
    "longitude": 35.268374,
    "phone": "+1 (935) 590-2049",
    "website": "http://sunt.com"
  },
  {
    "id": 8,
    "name": "culpa aliqua",
    "image": "http://placehold.it/100x100",
    "latitude": -26.708763,
    "longitude": 17.681024,
    "phone": "+1 (826) 495-3378",
    "website": "http://nulla.com"
  },
  {
    "id": 9,
    "name": "consequat irure",
    "image": "http://placehold.it/100x100",
    "latitude": -65.063585,
    "longitude": 127.515378,
    "phone": "+1 (853) 401-2572",
    "website": "http://magna.com"
  },
  {
    "id": 10,
    "name": "nostrud voluptate",
    "image": "http://placehold.it/100x100",
    "latitude": 25.600749,
    "longitude": -45.57543,
    "phone": "+1 (844) 482-3529",
    "website": "http://exercitation.com"
  },
  {
    "id": 11,
    "name": "mollit proident",
    "image": "http://placehold.it/100x100",
    "latitude": 39.06308,
    "longitude": -159.106661,
    "phone": "+1 (836) 404-2741",
    "website": "http://eiusmod.com"
  },
  {
    "id": 12,
    "name": "dolor est",
    "image": "http://placehold.it/100x100",
    "latitude": 3.714899,
    "longitude": -166.42935,
    "phone": "+1 (958) 549-3263",
    "website": "http://aute.com"
  },
  {
    "id": 13,
    "name": "sint sit",
    "image": "http://placehold.it/100x100",
    "latitude": 85.016994,
    "longitude": 77.927114,
    "phone": "+1 (922) 436-3595",
    "website": "http://mollit.com"
  }
]
